[{
    "id": "11",
    "name": "ACEH",
    "alt_name": "ACEH",
    "latitude": 4.695135,
    "longitude": 96.7493993
  },
  {
    "id": "12",
    "name": "SUMATERA UTARA",
    "alt_name": "SUMATERA UTARA",
    "latitude": 2.1153547,
    "longitude": 99.5450974
  },
  {
    "id": "13",
    "name": "SUMATERA BARAT",
    "alt_name": "SUMATERA BARAT",
    "latitude": -0.7399397,
    "longitude": 100.8000051
  },
  {
    "id": "14",
    "name": "RIAU",
    "alt_name": "RIAU",
    "latitude": 0.2933469,
    "longitude": 101.7068294
  },
  {
    "id": "15",
    "name": "JAMBI",
    "alt_name": "JAMBI",
    "latitude": -1.4851831,
    "longitude": 102.4380581
  },
  {
    "id": "16",
    "name": "SUMATERA SELATAN",
    "alt_name": "SUMATERA SELATAN",
    "latitude": -3.3194374,
    "longitude": 103.914399
  },
  {
    "id": "17",
    "name": "BENGKULU",
    "alt_name": "BENGKULU",
    "latitude": -3.5778471,
    "longitude": 102.3463875
  },
  {
    "id": "18",
    "name": "LAMPUNG",
    "alt_name": "LAMPUNG",
    "latitude": -4.5585849,
    "longitude": 105.4068079
  },
  {
    "id": "19",
    "name": "KEPULAUAN BANGKA BELITUNG",
    "alt_name": "KEPULAUAN BANGKA BELITUNG",
    "latitude": -2.7410513,
    "longitude": 106.4405872
  },
  {
    "id": "21",
    "name": "KEPULAUAN RIAU",
    "alt_name": "KEPULAUAN RIAU",
    "latitude": 3.9456514,
    "longitude": 108.1428669
  },
  {
    "id": "31",
    "name": "DKI JAKARTA",
    "alt_name": "DKI JAKARTA",
    "latitude": -6.211544,
    "longitude": 106.845172
  },
  {
    "id": "32",
    "name": "JAWA BARAT",
    "alt_name": "JAWA BARAT",
    "latitude": -7.090911,
    "longitude": 107.668887
  },
  {
    "id": "33",
    "name": "JAWA TENGAH",
    "alt_name": "JAWA TENGAH",
    "latitude": -7.150975,
    "longitude": 110.1402594
  },
  {
    "id": "34",
    "name": "DI YOGYAKARTA",
    "alt_name": "DI YOGYAKARTA",
    "latitude": -7.8753849,
    "longitude": 110.426208
  },
  {
    "id": "35",
    "name": "JAWA TIMUR",
    "alt_name": "JAWA TIMUR",
    "latitude": -7.5360639,
    "longitude": 112.2384017
  },
  {
    "id": "36",
    "name": "BANTEN",
    "alt_name": "BANTEN",
    "latitude": -6.4058172,
    "longitude": 106.0640179
  },
  {
    "id": "51",
    "name": "BALI",
    "alt_name": "BALI",
    "latitude": -8.4095178,
    "longitude": 115.188916
  },
  {
    "id": "52",
    "name": "NUSA TENGGARA BARAT",
    "alt_name": "NUSA TENGGARA BARAT",
    "latitude": -8.6529334,
    "longitude": 117.3616476
  },
  {
    "id": "53",
    "name": "NUSA TENGGARA TIMUR",
    "alt_name": "NUSA TENGGARA TIMUR",
    "latitude": -8.6573819,
    "longitude": 121.0793705
  },
  {
    "id": "61",
    "name": "KALIMANTAN BARAT",
    "alt_name": "KALIMANTAN BARAT",
    "latitude": -0.2787808,
    "longitude": 111.4752851
  },
  {
    "id": "62",
    "name": "KALIMANTAN TENGAH",
    "alt_name": "KALIMANTAN TENGAH",
    "latitude": -1.6814878,
    "longitude": 113.3823545
  },
  {
    "id": "63",
    "name": "KALIMANTAN SELATAN",
    "alt_name": "KALIMANTAN SELATAN",
    "latitude": -3.0926415,
    "longitude": 115.2837585
  },
  {
    "id": "64",
    "name": "KALIMANTAN TIMUR",
    "alt_name": "KALIMANTAN TIMUR",
    "latitude": 1.6406296,
    "longitude": 116.419389
  },
  {
    "id": "65",
    "name": "KALIMANTAN UTARA",
    "alt_name": "KALIMANTAN UTARA",
    "latitude": 3.018226,
    "longitude": 115.976012
  },
  {
    "id": "71",
    "name": "SULAWESI UTARA",
    "alt_name": "SULAWESI UTARA",
    "latitude": 0.6246932,
    "longitude": 123.9750018
  },
  {
    "id": "72",
    "name": "SULAWESI TENGAH",
    "alt_name": "SULAWESI TENGAH",
    "latitude": -1.4300254,
    "longitude": 121.4456179
  },
  {
    "id": "73",
    "name": "SULAWESI SELATAN",
    "alt_name": "SULAWESI SELATAN",
    "latitude": -3.6687994,
    "longitude": 119.9740534
  },
  {
    "id": "74",
    "name": "SULAWESI TENGGARA",
    "alt_name": "SULAWESI TENGGARA",
    "latitude": -4.14491,
    "longitude": 122.174605
  },
  {
    "id": "75",
    "name": "GORONTALO",
    "alt_name": "GORONTALO",
    "latitude": 0.6999372,
    "longitude": 122.4467238
  },
  {
    "id": "76",
    "name": "SULAWESI BARAT",
    "alt_name": "SULAWESI BARAT",
    "latitude": -2.8441371,
    "longitude": 119.2320784
  },
  {
    "id": "81",
    "name": "MALUKU",
    "alt_name": "MALUKU",
    "latitude": -3.2384616,
    "longitude": 130.1452734
  },
  {
    "id": "82",
    "name": "MALUKU UTARA",
    "alt_name": "MALUKU UTARA",
    "latitude": 1.5709993,
    "longitude": 127.8087693
  },
  {
    "id": "91",
    "name": "PAPUA BARAT",
    "alt_name": "PAPUA BARAT",
    "latitude": -1.3361154,
    "longitude": 133.1747162
  },
  {
    "id": "94",
    "name": "PAPUA",
    "alt_name": "PAPUA",
    "latitude": -4.269928,
    "longitude": 138.0803529
  }
]